$GNGSA,A,3,02,06,12,14,15,17,24,25,,,,,1.4,0.8,1.2*23
$GNGSA,A,3,88,,,,,,,,,,,,1.4,0.8,1.2*22
$GPRMC,071219.000,A,4909.933210,N,02016.678859,E,1.9,188.6,120815,,,A*64
$GPGGA,071219.000,4909.933210,N,02016.678859,E,1,09,0.8,877.3,M,41.8,M,,*51
$GPGSA,A,3,02,06,12,14,15,17,24,25,,,,,1.6,0.8,1.3*3E
$GPGSV,2,1,08,02,19,133,27,06,27,096,27,12,69,286,22,14,29,306,18*77
$GPGSV,2,2,08,15,08,190,16,17,23,047,20,24,74,163,32,25,29,268,18*7D
$GLGSV,1,1,01,88,56,154,19*5F
$GNGSA,A,3,02,06,12,14,15,17,24,25,,,,,1.4,0.8,1.2*23
$GNGSA,A,3,88,,,,,,,,,,,,1.4,0.8,1.2*22
$GPRMC,071220.000,A,4909.931812,N,02016.678769,E,1.9,191.8,120815,,,A*6E
$GPGGA,071220.000,4909.931812,N,02016.678769,E,1,09,0.8,877.1,M,41.8,M,,*5F
$GPGSA,A,3,02,06,12,14,15,17,25,,,,,,1.8,0.8,1.5*30
$GPGSV,2,1,08,02,19,133,25,06,27,096,28,12,69,286,22,14,29,306,18*7A
$GPGSV,2,2,08,15,08,190,16,17,23,047,20,24,74,163,29,25,29,268,20*7C
$GLGSV,1,1,01,88,56,154,19*5F
$GNGSA,A,3,02,06,12,14,15,17,25,,,,,,1.6,0.8,1.4*21
$GNGSA,A,3,88,,,,,,,,,,,,1.6,0.8,1.4*26
$GPRMC,071221.000,A,4909.930941,N,02016.679251,E,2.3,178.3,120815,,,A*63
$GPGGA,071221.000,4909.930941,N,02016.679251,E,1,08,0.8,877.0,M,41.8,M,,*57
$GPGSA,A,3,02,06,12,14,15,17,24,25,,,,,1.6,0.8,1.3*3E
$GPGSV,2,1,08,02,19,133,21,06,27,096,28,12,69,286,23,14,29,306,18*7F
$GPGSV,2,2,08,15,08,190,16,17,23,047,20,24,74,163,30,25,29,268,21*75
$GLGSV,1,1,01,88,56,154,18*5E
$GNGSA,A,3,02,06,12,14,15,17,24,25,,,,,1.4,0.8,1.2*23
$GNGSA,A,3,88,,,,,,,,,,,,1.4,0.8,1.2*22
$GPRMC,071222.000,A,4909.930221,N,02016.679243,E,1.3,175.5,120815,,,A*66
$GPGGA,071222.000,4909.930221,N,02016.679243,E,1,09,0.8,877.0,M,41.8,M,,*5B
$GPGSA,A,3,02,06,12,14,15,17,24,25,,,,,1.6,0.8,1.3*3E
$GPGSV,2,1,08,02,19,133,21,06,27,096,28,12,69,286,23,14,29,306,18*7F
$GPGSV,2,2,08,15,08,190,16,17,23,047,20,24,74,163,28,25,29,268,21*7C
$GLGSV,1,1,01,88,56,154,18*5E
$GNGSA,A,3,02,06,12,14,15,17,24,25,,,,,1.4,0.8,1.2*23
$GNGSA,A,3,88,,,,,,,,,,,,1.4,0.8,1.2*22
$GPRMC,071223.000,A,4909.929885,N,02016.679496,E,1.2,167.4,120815,,,A*66
$GPGGA,071223.000,4909.929885,N,02016.679496,E,1,09,0.8,877.0,M,41.8,M,,*58
$GPGSA,A,3,02,06,12,14,15,17,24,25,,,,,1.6,0.8,1.3*3E
$GPGSV,2,1,08,02,19,133,22,06,27,096,28,12,69,286,29,14,29,306,18*76
$GPGSV,2,2,08,15,08,190,16,17,23,047,20,24,74,163,27,25,29,268,21*73
$GLGSV,1,1,01,88,56,154,18*5E
$GNGSA,A,3,02,06,12,14,15,17,24,25,,,,,1.4,0.8,1.2*23
$GNGSA,A,3,88,,,,,,,,,,,,1.4,0.8,1.2*22
$GPRMC,071224.000,A,4909.929621,N,02016.680096,E,1.4,155.4,120815,,,A*64
$GPGGA,071224.000,4909.929621,N,02016.680096,E,1,09,0.8,876.6,M,41.8,M,,*5A
$GPGSA,A,3,02,06,12,14,15,17,24,25,,,,,1.6,0.8,1.3*3E
$GPGSV,2,1,08,02,19,133,22,06,27,096,28,12,69,286,28,14,29,306,18*77
$GPGSV,2,2,08,15,08,190,16,17,23,047,20,24,74,163,24,25,29,268,21*70
$GLGSV,1,1,01,88,56,154,18*5E
$GNGSA,A,3,02,06,12,14,15,17,24,25,,,,,1.4,0.8,1.2*23
$GNGSA,A,3,88,,,,,,,,,,,,1.4,0.8,1.2*22
$GPRMC,071225.000,A,4909.929262,N,02016.680360,E,1.4,148.1,120815,,,A*65
$GPGGA,071225.000,4909.929262,N,02016.680360,E,1,09,0.8,876.4,M,41.8,M,,*50
$GPGSA,A,3,02,06,12,14,15,17,24,25,,,,,1.6,0.8,1.3*3E
$GPGSV,2,1,08,02,19,133,22,06,27,096,28,12,69,286,15,14,29,306,18*79
$GPGSV,2,2,08,15,08,190,22,17,23,047,20,24,74,163,24,25,29,268,21*77
$GLGSV,1,1,01,88,56,154,18*5E
$GNGSA,A,3,02,06,12,14,15,17,24,25,,,,,1.4,0.8,1.2*23
$GNGSA,A,3,88,,,,,,,,,,,,1.4,0.8,1.2*22
$GPRMC,071226.000,A,4909.928770,N,02016.680606,E,0.9,142.2,120815,,,A*61
$GPGGA,071226.000,4909.928770,N,02016.680606,E,1,09,0.8,876.2,M,41.8,M,,*57
$GPGSA,A,3,02,06,12,14,15,17,24,,,,,,1.6,0.8,1.3*39
$GPGSV,2,1,08,02,19,133,32,06,27,096,22,12,69,286,17,14,29,306,18*70
$GPGSV,2,2,08,15,08,190,26,17,23,047,21,24,74,163,24,25,29,268,04*75
$GLGSV,1,1,01,88,56,154,18*5E
$GNGSA,A,3,02,06,12,14,15,17,24,,,,,,1.6,0.8,1.2*26
$GNGSA,A,3,88,,,,,,,,,,,,1.6,0.8,1.2*20
$GPRMC,071227.000,A,4909.927396,N,02016.680318,E,1.2,145.1,120815,,,A*67
$GPGGA,071227.000,4909.927396,N,02016.680318,E,1,08,0.8,875.6,M,41.8,M,,*59
$GPGSA,A,3,02,06,12,14,15,17,24,25,,,,,1.6,0.8,1.3*3E
$GPGSV,2,1,08,02,19,133,28,06,27,096,23,12,69,286,19,14,29,306,18*74
$GPGSV,2,2,08,15,08,190,24,17,23,047,26,24,74,163,24,25,29,268,15*70
$GLGSV,1,1,01,88,56,154,18*5E
$GNGSA,A,3,02,06,12,14,15,17,24,25,,,,,1.4,0.8,1.2*23
$GNGSA,A,3,88,,,,,,,,,,,,1.4,0.8,1.2*22
$GPRMC,071228.000,A,4909.926868,N,02016.680504,E,1.5,147.8,120815,,,A*64
$GPGGA,071228.000,4909.926868,N,02016.680504,E,1,09,0.8,875.2,M,41.8,M,,*53
$GPGSA,A,3,02,06,12,14,15,17,24,25,,,,,1.6,0.8,1.3*3E
$GPGSV,2,1,08,02,19,133,27,06,27,096,25,12,69,286,21,14,29,306,17*79
$GPGSV,2,2,08,15,08,190,25,17,23,047,27,24,74,163,24,25,29,268,16*73
$GLGSV,1,1,01,88,56,154,18*5E
$GNGSA,A,3,02,06,12,14,15,17,24,25,,,,,1.4,0.8,1.2*23
$GNGSA,A,3,88,,,,,,,,,,,,1.4,0.8,1.2*22
$GPRMC,071229.000,A,4909.926165,N,02016.680859,E,2.0,144.8,120815,,,A*61
$GPGGA,071229.000,4909.926165,N,02016.680859,E,1,09,0.8,875.0,M,41.8,M,,*51
$GPGSA,A,3,02,06,12,14,15,17,24,25,,,,,1.6,0.8,1.3*3E
$GPGSV,2,1,08,02,19,133,21,06,27,096,24,12,69,286,21,14,29,306,17*7E
$GPGSV,2,2,08,15,08,190,25,17,23,047,26,24,74,163,24,25,29,268,17*73
$GLGSV,1,1,01,88,56,154,18*5E
$GNGSA,A,3,02,06,12,14,15,17,24,25,,,,,1.4,0.8,1.2*23
$GNGSA,A,3,88,,,,,,,,,,,,1.4,0.8,1.2*22
$GPRMC,071230.000,A,4909.925380,N,02016.681099,E,2.2,149.8,120815,,,A*69
$GPGGA,071230.000,4909.925380,N,02016.681099,E,1,09,0.8,874.6,M,41.8,M,,*51
$GPGSA,A,3,02,06,12,14,15,17,24,,,,,,1.6,0.8,1.3*39
$GPGSV,2,1,08,02,19,133,20,06,27,096,24,12,69,286,34,14,29,306,17*7B
$GPGSV,2,2,08,15,08,190,25,17,23,047,26,24,74,163,24,25,29,268,17*73
$GLGSV,1,1,01,88,56,154,18*5E
$GNGSA,A,3,02,06,12,14,15,17,24,,,,,,1.6,0.8,1.2*26
$GNGSA,A,3,88,,,,,,,,,,,,1.6,0.8,1.2*20
$GPRMC,071231.000,A,4909.924683,N,02016.681147,E,2.0,154.4,120815,,,A*6F
$GPGGA,071231.000,4909.924683,N,02016.681147,E,1,08,0.8,874.3,M,41.8,M,,*51
$GPGSA,A,3,02,06,12,14,15,17,24,25,,,,,1.6,0.8,1.3*3E
$GPGSV,2,1,08,02,19,133,21,06,27,096,23,12,69,286,32,14,29,306,17*7B
$GPGSV,2,2,08,15,08,190,24,17,23,047,23,24,74,163,23,25,29,268,17*70
$GLGSV,1,1,01,88,56,154,17*51
$GNGSA,A,3,02,06,12,14,15,17,24,25,,,,,1.4,0.8,1.2*23
$GNGSA,A,3,88,,,,,,,,,,,,1.4,0.8,1.2*22
$GPRMC,071232.000,A,4909.924185,N,02016.681404,E,1.6,157.0,120815,,,A*6D
$GPGGA,071232.000,4909.924185,N,02016.681404,E,1,09,0.8,873.9,M,41.8,M,,*5D
$GPGSA,A,3,02,06,12,14,15,17,24,25,,,,,1.6,0.8,1.3*3E
$GPGSV,2,1,08,02,19,133,21,06,27,096,19,12,69,286,24,14,29,306,17*75
$GPGSV,2,2,08,15,08,190,24,17,23,047,22,24,74,163,17,25,29,268,17*76
$GLGSV,1,1,01,88,56,154,18*5E
$GNGSA,A,3,02,06,12,14,15,17,24,25,,,,,1.4,0.8,1.2*23
$GNGSA,A,3,88,,,,,,,,,,,,1.4,0.8,1.2*22
$GPRMC,071233.000,A,4909.923669,N,02016.681217,E,1.0,161.1,120815,,,A*68
$GPGGA,071233.000,4909.923669,N,02016.681217,E,1,09,0.8,873.6,M,41.8,M,,*55
$GPGSA,A,3,02,06,12,14,15,17,24,25,,,,,1.6,0.8,1.3*3E
$GPGSV,2,1,08,02,19,133,21,06,27,096,18,12,69,286,24,14,29,306,17*74
$GPGSV,2,2,08,15,08,190,23,17,23,047,22,24,74,163,17,25,29,268,17*71
$GLGSV,1,1,01,88,56,154,18*5E
$GNGSA,A,3,02,06,12,14,15,17,24,25,,,,,1.4,0.8,1.2*23
$GNGSA,A,3,88,,,,,,,,,,,,1.4,0.8,1.2*22
$GPRMC,071234.000,A,4909.923130,N,02016.681182,E,1.0,166.9,120815,,,A*64
$GPGGA,071234.000,4909.923130,N,02016.681182,E,1,09,0.8,873.2,M,41.8,M,,*52
$GPGSA,A,3,02,06,12,14,15,17,24,25,,,,,1.6,0.8,1.3*3E
$GPGSV,2,1,08,02,19,133,21,06,27,096,18,12,69,286,23,14,29,306,17*73
$GPGSV,2,2,08,15,08,190,23,17,23,047,23,24,74,163,17,25,29,268,17*70
$GLGSV,1,1,01,88,56,154,18*5E
$GNGSA,A,3,02,06,12,14,15,17,24,25,,,,,1.4,0.8,1.2*23
$GNGSA,A,3,88,,,,,,,,,,,,1.4,0.8,1.2*22
$GPRMC,071235.000,A,4909.922625,N,02016.680918,E,1.0,171.2,120815,,,A*60
$GPGGA,071235.000,4909.922625,N,02016.680918,E,1,09,0.8,872.9,M,41.8,M,,*51
$GPGSA,A,3,02,06,12,14,15,17,24,25,,,,,1.6,0.8,1.3*3E
$GPGSV,2,1,08,02,19,133,21,06,27,096,19,12,69,286,22,14,29,306,17*73
$GPGSV,2,2,08,15,08,190,23,17,23,047,23,24,74,163,30,25,29,268,18*7A
$GLGSV,1,1,01,88,56,154,18*5E
$GNGSA,A,3,02,06,12,14,15,17,24,25,,,,,1.4,0.8,1.2*23
$GNGSA,A,3,88,,,,,,,,,,,,1.4,0.8,1.2*22
$GPRMC,071236.000,A,4909.922080,N,02016.680504,E,1.6,199.3,120815,,,A*6A
$GPGGA,071236.000,4909.922080,N,02016.680504,E,1,09,0.8,872.6,M,41.8,M,,*55
$GPGSA,A,3,02,06,12,14,15,17,24,25,,,,,1.6,0.8,1.3*3E
$GPGSV,2,1,08,02,19,133,21,06,27,096,20,12,69,286,22,14,29,306,17*79
$GPGSV,2,2,08,15,08,190,23,17,23,047,23,24,74,163,27,25,29,268,18*7C
$GLGSV,1,1,01,88,56,154,18*5E
$GNGSA,A,3,02,06,12,14,15,17,24,25,,,,,1.4,0.8,1.2*23
$GNGSA,A,3,88,,,,,,,,,,,,1.4,0.8,1.2*22
$GPRMC,071237.000,A,4909.921492,N,02016.680209,E,1.0,206.7,120815,,,A*62
$GPGGA,071237.000,4909.921492,N,02016.680209,E,1,09,0.8,872.3,M,41.8,M,,*5F
$GPGSA,A,3,02,06,12,14,15,17,24,25,,,,,1.6,0.8,1.3*3E
$GPGSV,2,1,08,02,19,133,21,06,27,096,20,12,69,286,22,14,29,306,17*79
$GPGSV,2,2,08,15,08,190,24,17,23,047,23,24,74,163,27,25,29,268,19*7A
$GLGSV,1,1,01,88,56,154,19*5F
$GNGSA,A,3,02,06,12,14,15,17,24,25,,,,,1.4,0.8,1.2*23
$GNGSA,A,3,88,,,,,,,,,,,,1.4,0.8,1.2*22
$GPRMC,071238.000,A,4909.921150,N,02016.680131,E,1.0,205.1,120815,,,A*6B
$GPGGA,071238.000,4909.921150,N,02016.680131,E,1,09,0.8,872.0,M,41.8,M,,*50
$GPGSA,A,3,02,06,12,14,15,17,24,25,,,,,1.6,0.8,1.3*3E
$GPGSV,2,1,08,02,19,133,28,06,27,096,21,12,69,286,22,14,29,306,17*71
$GPGSV,2,2,08,15,08,190,24,17,23,047,23,24,74,163,28,25,29,268,19*75 